[
  { "name": "London", "lat": 51.5074, "lon": -0.1278 },
  { "name": "New York", "lat": 40.7128, "lon": -74.0060 },
  { "name": "San Francisco", "lat": 37.7749, "lon": -122.4194 },
  { "name": "Tokyo", "lat": 35.6762, "lon": 139.6503 },
  { "name": "Sydney", "lat": -33.8688, "lon": 151.2093 }
]
